City_ID,City,Lat,Lng,Max Temp,Humidity,Cloudiness,Wind Speed,Country,Date
0,keflavik,64.0049,-22.5624,3.95,70,0,8.23,IS,1699846984
1,kuraymah,18.55,31.85,27.3,27,67,2.3,SD,1699847183
2,constantia,44.1833,28.65,5.38,51,100,1.68,RO,1699846914
3,jamestown,42.097,-79.2353,2.8,77,0,0.45,US,1699847007
4,puerto real,36.5282,-6.1901,15.7,88,0,3.6,ES,1699847184
5,mount isa,-20.7333,139.5,37.87,20,6,6.17,AU,1699847185
6,afaahiti,-17.75,-149.2833,23.93,80,56,2.56,PF,1699847185
7,waitangi,-43.9535,-176.5597,12.95,85,100,8.38,NZ,1699847185
8,zaozersk,69.4005,32.4476,-11.47,95,99,3.17,RU,1699847186
9,bethel,41.3712,-73.414,1.38,76,0,0.0,US,1699847008
10,luderitz,-26.6481,15.1594,17.39,58,0,7.43,NA,1699847113
11,iqaluit,63.7506,-68.5145,-19.06,77,20,2.57,CA,1699847187
12,buka,40.8108,69.1986,8.91,44,93,0.86,UZ,1699847187
13,adamstown,-25.066,-130.1015,22.79,86,99,8.81,PN,1699847188
14,kisangani,0.5167,25.2,19.94,98,100,1.18,CD,1699847188
15,aasiaat,68.7098,-52.8699,-14.45,87,18,1.94,GL,1699847189
16,hithadhoo,-0.6,73.0833,27.36,79,97,4.26,MV,1699846982
17,grytviken,-54.2811,-36.5092,2.39,91,100,1.84,GS,1699847190
18,ushuaia,-54.8,-68.3,9.81,53,0,4.12,AR,1699847191
19,puerto natales,-51.7236,-72.4875,4.94,86,100,2.21,CL,1699847184
20,stanley,54.868,-1.6985,6.96,95,100,2.57,GB,1699847148
21,worland,44.0169,-107.9554,7.04,44,0,2.06,US,1699847192
22,fortuna,40.5982,-124.1573,13.85,83,0,2.68,US,1699847193
23,beacon square,28.2086,-82.7554,23.02,79,100,2.24,US,1699847193
24,margate,51.3813,1.3862,11.61,95,100,2.24,GB,1699846906
25,bodo,67.28,14.405,-1.42,65,0,8.75,NO,1699847196
26,baiti,13.745,-14.7482,25.97,24,98,1.07,SN,1699847196
27,bredasdorp,-34.5322,20.0403,13.46,86,53,0.75,ZA,1699847196
28,port-aux-francais,-49.35,70.2167,4.44,79,100,2.9,TF,1699846906
29,kapa'a,22.0752,-159.319,27.99,80,75,8.23,US,1699847008
30,northam,51.0333,-4.2167,14.58,98,100,12.66,GB,1699846970
31,yellowknife,62.456,-114.3525,-7.55,95,75,8.75,CA,1699847198
32,punta arenas,-53.15,-70.9167,9.06,61,75,7.2,CL,1699847183
33,nuku'alofa,-21.1333,-175.2,21.19,94,100,5.14,TO,1699847039
34,iskateley,67.6803,53.1512,-11.66,94,44,2.24,RU,1699846991
35,greymouth,-42.4667,171.2,14.9,85,100,4.67,NZ,1699847200
36,ilulissat,69.2167,-51.1,-12.99,66,20,1.54,GL,1699847200
37,aykhal,66.0,111.5,-12.68,94,99,4.16,RU,1699847201
38,susuman,62.7833,148.1667,-28.16,97,92,0.41,RU,1699847201
39,port elizabeth,-33.918,25.5701,15.16,79,0,5.14,ZA,1699847201
40,santana,-0.0583,-51.1817,28.1,78,0,6.17,BR,1699847202
41,axim,4.8699,-2.2405,25.71,89,18,2.43,GH,1699847202
42,ribeira grande,38.5167,-28.7,17.1,86,100,3.13,PT,1699846907
43,labasa,-16.4167,179.3833,27.65,81,100,3.53,FJ,1699847203
44,hadibu,12.65,54.0333,26.99,82,55,5.82,YE,1699847204
45,alofi,-19.0595,-169.9187,23.94,88,100,5.66,NU,1699847204
46,tazacorte,28.629,-17.9293,23.42,37,20,4.02,ES,1699847152
47,port lincoln,-34.7333,135.8667,17.38,62,100,6.15,AU,1699847022
48,muynoq,43.7683,59.0214,5.14,71,0,5.17,UZ,1699847205
49,fredericksburg,38.3032,-77.4605,4.1,87,0,11.18,US,1699846914
50,yanam,16.7333,82.2167,28.54,64,100,4.22,IN,1699846976
51,manggar,-2.8833,108.2667,30.1,66,89,4.77,ID,1699847206
52,illizi,26.4833,8.4667,13.89,47,0,1.0,DZ,1699847207
53,anadyr,64.75,177.4833,-1.72,86,75,6.0,RU,1699847207
54,bryne,58.7354,5.6477,5.55,93,100,0.0,NO,1699847207
55,puerto ayora,-0.7393,-90.3518,24.75,92,77,2.68,EC,1699846969
56,port mathurin,-19.6833,63.4167,25.17,78,0,2.01,MU,1699847208
57,krasnokamensk,50.0979,118.0369,-3.5,64,3,1.54,RU,1699847208
58,san angelo,31.4638,-100.437,13.66,91,100,2.06,US,1699846969
59,fuling,29.7022,107.3919,10.73,74,100,0.72,CN,1699847044
60,ciudad melchor muzquiz,27.8833,-101.5167,14.6,84,100,1.41,MX,1699847209
61,lompoc,34.6391,-120.4579,15.88,82,0,2.57,US,1699847201
62,hermanus,-34.4187,19.2345,14.03,87,14,4.45,ZA,1699847210
63,kladanj,44.2264,18.6914,-0.16,81,84,2.04,BA,1699847210
64,albany,42.6001,-73.9662,-1.82,81,0,1.44,US,1699847210
65,sao tome,0.3365,6.7273,26.3,85,31,3.31,ST,1699847211
66,den burg,53.0542,4.7972,6.99,95,100,3.09,NL,1699847211
67,oban,56.4127,-5.4706,7.43,90,99,4.55,GB,1699847211
68,papatowai,-46.5619,169.4708,10.79,96,100,2.46,NZ,1699847211
69,palmas,-10.2128,-48.3603,26.93,74,0,1.54,BR,1699847212
70,cuyo,10.8525,121.0086,29.06,75,27,8.13,PH,1699847212
71,sorong,-0.8833,131.25,29.7,70,99,3.27,ID,1699847212
72,mooirivier,-29.2082,29.9946,10.78,91,100,1.07,ZA,1699847213
73,edinburgh of the seven seas,-37.0676,-12.3116,14.35,81,54,10.96,SH,1699847116
74,biryusinsk,55.9634,97.8235,-2.84,63,100,1.25,RU,1699847214
75,san pedro pochutla,15.7333,-96.4667,23.86,90,11,1.86,MX,1699847215
76,udachny,66.4167,112.4,-11.97,84,100,3.64,RU,1699847215
77,bandundu,-3.3167,17.3667,21.0,96,100,1.48,CD,1699847216
78,nemuro,43.3236,145.575,5.08,43,26,3.11,JP,1699847216
79,sao lourenco do sul,-31.3653,-51.9783,18.3,97,100,3.35,BR,1699846986
80,santiago de cao,-7.9589,-79.2392,19.07,82,75,4.12,PE,1699847217
81,dudinka,69.4058,86.1778,-2.4,96,100,5.36,RU,1699847217
82,sinabang,2.4803,96.3801,28.23,77,76,1.42,ID,1699846967
83,chui,-33.6971,-53.4616,15.34,93,75,2.75,UY,1699847218
84,lashio,22.9333,97.75,26.17,58,23,0.59,MM,1699847218
85,puerto francisco de orellana,-0.4667,-76.9667,21.8,98,76,0.43,EC,1699847218
86,hawaiian paradise park,19.5933,-154.9731,23.73,92,100,0.45,US,1699846963
87,laguna,38.421,-121.4238,15.99,63,0,2.57,US,1699847219
88,st. john's,47.5649,-52.7093,-1.23,81,100,5.14,CA,1699846940
89,palmerston north,-40.35,175.6167,21.14,70,45,2.68,NZ,1699847220
90,mount gambier,-37.8333,140.7667,18.18,44,33,4.7,AU,1699847220
91,georgetown,5.4112,100.3354,32.75,72,20,3.09,MY,1699847155
92,haiku-pauwela,20.9219,-156.3051,25.01,74,40,9.77,US,1699847220
93,alice springs,-23.7,133.8833,35.75,21,86,4.63,AU,1699846955
94,ust-nera,64.5667,143.2,-24.04,99,99,1.39,RU,1699847222
95,quito,-0.2299,-78.5249,11.53,91,74,0.81,EC,1699846801
96,isafjordur,66.0755,-23.124,1.28,84,100,2.4,IS,1699846936
97,karaton,-6.3424,106.1045,31.66,59,86,1.03,ID,1699847224
98,nar'yan-mar,67.6713,53.087,-11.61,94,42,2.24,RU,1699846974
99,touros,-5.1989,-35.4608,26.44,72,43,5.8,BR,1699846970
100,villa gesell,-37.2639,-56.973,12.25,58,84,5.17,AR,1699847225
101,hasaki,35.7333,140.8333,14.22,61,99,7.9,JP,1699847225
102,rio gallegos,-51.6226,-69.2181,10.03,50,0,2.57,AR,1699847226
103,tougue,11.4667,-11.6,19.65,45,2,0.48,GN,1699847227
104,weining,26.85,104.2333,5.44,84,100,0.79,CN,1699847227
105,yeniseysk,58.4497,92.1703,-0.59,98,100,2.24,RU,1699847228
106,olinda,-8.0089,-34.8553,25.85,73,40,3.6,BR,1699847228
107,hanceville,34.0607,-86.7675,14.17,65,92,1.42,US,1699847229
108,gaalkacyo,6.7697,47.4308,25.87,77,19,5.0,SO,1699847229
109,manay,7.215,126.5397,30.54,69,60,4.47,PH,1699847229
110,amahai,-3.3333,128.9167,28.98,72,95,2.77,ID,1699847230
111,cidreira,-30.1811,-50.2056,20.68,98,100,7.13,BR,1699847231
112,atafu village,-8.5421,-172.5159,29.48,68,44,2.12,TK,1699847231
113,kilju,40.9642,129.3278,6.34,23,1,1.48,KP,1699847232
114,qaqortoq,60.7167,-46.0333,-8.89,91,26,1.05,GL,1699847232
115,blackmans bay,-43.0167,147.3167,21.07,35,2,2.35,AU,1699847219
116,saint-pierre,-21.3393,55.4781,23.99,53,0,3.09,RE,1699847233
117,utrik,11.2278,169.8474,27.88,83,99,9.15,MH,1699847233
118,pizhou,34.3114,117.9503,6.7,31,89,0.55,CN,1699847234
119,azhikkal,11.9,75.3667,27.64,60,92,1.84,IN,1699847235
120,waddan,29.1614,16.139,17.17,80,0,0.66,LY,1699847235
121,lorengau,-2.0226,147.2712,29.08,67,62,1.49,PG,1699847236
122,gulf shores,30.246,-87.7008,18.89,79,100,2.57,US,1699847237
123,invercargill,-46.4,168.35,11.68,89,100,4.02,NZ,1699847187
124,bikenibeu village,1.3673,173.1241,29.98,79,75,1.54,KI,1699846963
125,mwanza,-2.5167,32.9,21.62,77,59,1.34,TZ,1699847240
126,bontang,0.1333,117.5,29.68,68,81,2.36,ID,1699847240
127,port saint john's,-31.6229,29.5448,16.56,70,0,3.06,ZA,1699847241
128,wanning,18.8003,110.3967,25.56,83,53,8.01,CN,1699847241
129,westport,41.1415,-73.3579,1.99,70,0,2.57,US,1699847241
130,bilibino,68.0546,166.4372,-16.7,98,100,2.44,RU,1699847242
131,anaconda,46.1285,-112.9423,1.55,64,99,2.41,US,1699847003
132,chaohu,31.6,117.8667,8.36,33,50,3.02,CN,1699847243
133,aussillon,43.5029,2.3679,13.2,93,0,3.6,FR,1699847243
134,la passe,45.5549,-0.8967,15.55,81,92,6.23,FR,1699847244
135,plouzane,48.3833,-4.6167,16.03,91,100,12.86,FR,1699847244
136,banfora,10.6333,-4.7667,23.52,24,36,2.05,BF,1699847244
137,colotlan,22.1,-103.2667,17.14,85,99,3.72,MX,1699847245
138,monrovia,6.3005,-10.7969,23.87,86,100,2.8,LR,1699847245
139,new plymouth,-39.0667,174.0833,14.06,62,100,5.29,NZ,1699847245
140,margaret river,-33.95,115.0667,24.64,49,55,3.03,AU,1699846969
141,kochenevo,55.0218,82.202,3.66,97,100,6.94,RU,1699847246
142,thompson,55.7435,-97.8558,-1.91,100,100,1.03,CA,1699847246
143,lamar,33.6668,-95.5836,12.95,69,0,2.06,US,1699847247
144,asau,46.4333,26.4,1.51,88,32,2.68,RO,1699847247
145,nikol'sk,53.7189,46.0712,7.54,79,82,8.97,RU,1699847248
146,isla vista,34.4133,-119.861,20.25,32,0,0.0,US,1699847248
147,west island,-12.1568,96.8225,27.99,78,75,4.63,CC,1699847217
148,naracoorte,-36.9579,140.7383,25.15,24,56,5.8,AU,1699847249
149,codrington,-38.2667,141.9667,16.52,53,5,6.96,AU,1699847250
150,revda,56.801,59.9303,0.78,85,100,1.5,RU,1699847250
151,suva,-18.1416,178.4415,23.71,94,75,4.63,FJ,1699847251
152,piton saint-leu,-21.2196,55.3151,22.23,53,0,3.09,RE,1699847251
153,maracas,-13.4411,-40.4308,18.13,66,2,1.7,BR,1699847106
154,dhidhdhoo,6.8833,73.1,28.13,74,94,2.77,MV,1699847252
155,klaksvik,62.2266,-6.589,6.51,82,100,12.81,FO,1699847252
156,yeppoon,-23.1333,150.7333,31.88,51,0,4.46,AU,1699847253
157,qarazhal,48.0078,70.7903,2.84,85,93,2.82,KZ,1699847253
158,san borja,-14.8167,-66.85,28.43,53,17,1.48,BO,1699847254
159,montevideo,-34.8335,-56.1674,18.23,72,75,6.69,UY,1699847254
160,la'ie,21.6477,-157.9253,27.98,79,45,5.81,US,1699847254
161,ta`u,-14.2336,-169.5144,28.07,77,26,3.19,AS,1699847255
162,uturoa,-16.7333,-151.4333,27.54,76,67,1.92,PF,1699847255
163,nova sintra,14.8667,-24.7167,23.24,67,53,3.03,CV,1699847256
164,korla,41.7597,86.1469,6.36,55,79,0.38,CN,1699847256
165,yen vinh,18.6667,105.6667,25.45,85,62,6.85,VN,1699847256
166,glace bay,46.1969,-59.957,2.76,78,100,6.26,CA,1699847257
167,vorgashor,67.5833,63.95,-10.54,97,95,2.7,RU,1699847258
168,wailua homesteads,22.0669,-159.378,27.24,81,75,7.72,US,1699847258
169,zhezkent,50.9311,81.3615,2.23,87,93,5.33,KZ,1699847258
170,kapuskasing,49.4169,-82.4331,1.05,100,100,8.23,CA,1699847259
171,tromso,69.6496,18.957,-2.99,68,16,3.09,NO,1699847260
172,tura,25.5198,90.2201,25.91,56,0,0.6,IN,1699847261
173,bucovice,49.149,17.0019,1.66,92,100,1.58,CZ,1699847262
174,peace river,56.2501,-117.286,-1.83,93,75,3.09,CA,1699847262
175,ozery,54.86,38.5506,5.89,96,100,8.05,RU,1699847262
176,ebon,4.582,168.6964,28.36,80,99,4.21,MH,1699847263
177,mata-utu,-13.2816,-176.1745,28.87,72,94,5.32,WF,1699847263
178,olonkinbyen,70.9221,-8.7187,-3.2,67,100,2.57,SJ,1699847264
179,taunsa,30.7048,70.6505,22.44,32,8,0.46,PK,1699847264
180,bridgewater,44.3835,-64.5155,0.82,88,13,2.57,CA,1699847264
181,qacha's nek,-30.1154,28.6894,9.29,74,86,1.0,LS,1699847265
182,ismailia,30.6043,32.2723,21.73,87,9,2.82,EG,1699847265
183,veshenskaya,49.6303,41.7334,10.62,89,72,10.28,RU,1699847265
184,arno,60.1167,18.6333,3.21,97,100,4.97,SE,1699847265
185,shingu,33.7333,135.9833,12.73,54,18,3.55,JP,1699847266
186,sao jose da coroa grande,-8.8978,-35.1478,23.31,80,7,1.65,BR,1699847266
187,bambanglipuro,-7.95,110.2833,29.28,70,57,5.64,ID,1699847266
188,kirensk,57.7853,108.1119,-7.12,70,80,2.24,RU,1699847267
189,port alfred,-33.5906,26.891,14.54,86,83,0.89,ZA,1699847254
190,rongelap,11.1635,166.8941,27.97,84,100,8.88,MH,1699847267
191,trevelin,-43.0858,-71.4639,6.71,90,44,2.78,AR,1699847268
192,palikir - national government center,6.9248,158.1611,31.41,74,100,2.57,FM,1699847268
193,east london,-33.0153,27.9116,14.52,77,0,3.6,ZA,1699847268
194,san antonio de pale,-1.4014,5.6325,26.21,83,47,4.3,GQ,1699847268
195,puerto madero,14.7208,-92.4215,27.16,80,10,1.37,MX,1699847269
196,tieli,46.95,128.05,-6.22,81,71,3.18,CN,1699847269
197,college,64.8569,-147.8028,-11.42,82,20,0.0,US,1699847269
198,chanika,-5.4167,38.0167,21.0,92,96,0.81,TZ,1699847270
199,calasparra,38.23,-1.6999,15.35,80,30,2.24,ES,1699847270
200,happy valley-goose bay,53.3168,-60.3315,-2.83,68,75,5.66,CA,1699847270
201,parras de la fuente,25.4167,-102.1833,11.99,86,100,0.53,MX,1699847271
202,talnakh,69.4865,88.3972,-4.33,97,100,2.87,RU,1699847198
203,preobrazheniye,42.9019,133.9064,1.18,40,75,4.07,RU,1699847271
204,chonchi,-42.6128,-73.8092,7.29,89,98,1.82,CL,1699847271
205,pudasjarvi,65.3833,26.9167,-4.23,87,100,4.05,FI,1699847272
206,hammerfest,70.6634,23.6821,-7.75,67,14,0.51,NO,1699847272
207,vernon,50.2581,-119.2691,7.09,71,100,1.03,CA,1699847272
208,tazovsky,67.4667,78.7,-6.81,94,85,7.24,RU,1699847273
209,vilyuchinsk,52.9306,158.4028,0.15,72,43,1.89,RU,1699847273
210,egilsstadir,65.2653,-14.3948,-0.05,93,20,3.6,IS,1699847273
211,puerto lempira,15.2667,-83.7667,26.07,92,99,5.15,HN,1699847274
212,nema,57.5067,50.5011,1.87,94,100,6.43,RU,1699847274
213,maiurno,13.4167,33.6667,28.74,37,81,2.71,SD,1699847274
214,avarua,-21.2078,-159.775,22.03,68,99,4.12,CK,1699847274
215,rikaze,29.25,88.8833,5.1,11,0,0.61,CN,1699847275
216,wicklow,53.0,-6.4167,8.87,96,100,9.76,IE,1699846987
217,olyokminsk,60.3736,120.4264,-8.23,83,99,1.78,RU,1699847275
218,barra do bugres,-15.0725,-57.1811,27.19,55,36,1.18,BR,1699847276
219,magistral'nyy,56.1725,107.4458,-7.57,74,42,0.72,RU,1699847276
220,chibougamau,49.9168,-74.3659,-6.21,93,100,3.09,CA,1699847276
221,kargasok,59.0556,80.8572,1.09,94,99,2.68,RU,1699847276
222,claveria,18.6074,121.0832,26.95,82,54,7.41,PH,1699847277
223,crane,31.3974,-102.3501,14.0,80,100,3.96,US,1699847277
224,ulladulla,-35.35,150.4667,27.65,57,72,4.15,AU,1699847277
225,bereznik,62.8551,42.7072,-1.25,90,100,5.69,RU,1699847278
226,arraial do cabo,-22.9661,-42.0278,23.99,88,93,2.42,BR,1699847278
227,vila franca do campo,37.7167,-25.4333,20.23,99,84,5.84,PT,1699847220
228,bloemfontein,-29.1211,26.214,11.71,87,0,1.54,ZA,1699847278
229,upata,8.0086,-62.3989,24.0,95,12,1.75,VE,1699847279
230,maun,-19.9833,23.4167,25.96,27,70,1.31,BW,1699846995
231,floro,61.5996,5.0328,5.54,70,20,4.12,NO,1699847279
232,jumla,29.2747,82.1838,15.03,33,0,1.42,NP,1699847170
233,dubbo,-32.25,148.6167,31.07,14,0,2.57,AU,1699847280
234,portage la prairie,49.9728,-98.2926,3.27,59,0,7.29,CA,1699847280
235,kalimpong,27.0667,88.4833,22.69,39,0,0.42,IN,1699847280
236,adler,43.43,39.92,13.09,87,100,3.13,RU,1699847281
237,laojunmiao,39.8333,97.7333,3.87,27,80,3.05,CN,1699847281
238,keminmaa,65.8596,24.8228,-7.13,93,100,3.09,FI,1699847281
239,paradip garh,20.3167,86.6167,27.3,56,76,5.52,IN,1699847282
240,ciudad lazaro cardenas,17.9583,-102.2,26.0,85,52,1.69,MX,1699847283
241,kirakira,-10.4544,161.9205,27.1,81,100,2.99,SB,1699847283
242,malagon,39.2139,-4.0005,12.63,97,62,1.45,ES,1699847285
243,hamilton,39.1834,-84.5333,8.17,72,0,0.89,US,1699846831
244,nadi,-17.8,177.4167,26.0,83,75,4.63,FJ,1699847286
245,tostado,-29.232,-61.7692,20.55,72,100,0.45,AR,1699847286
246,badger,64.8,-147.5333,-11.47,85,20,0.0,US,1699847287
247,bamboo flat,11.7,92.7167,27.05,83,75,2.06,IN,1699847287
248,bayanhongor,46.7167,100.1167,-10.37,47,1,0.72,MN,1699847287
249,banda aceh,5.5577,95.3222,29.33,71,62,4.52,ID,1699847288
250,turpan,42.9333,89.1667,10.36,22,10,0.48,CN,1699847288
251,ghadamis,30.1337,9.5007,16.22,39,0,2.34,LY,1699847289
252,san rafael,-34.6177,-68.3301,10.77,32,0,0.89,AR,1699847128
253,eraan,9.0629,117.7016,31.55,59,4,2.18,PH,1699847290
254,nantucket,41.2835,-70.0995,5.64,65,100,2.06,US,1699847290
255,constitucion,-35.3333,-72.4167,8.62,76,1,5.07,CL,1699847290
256,simanggang,1.2472,111.4528,29.99,74,40,1.54,MY,1699847291
257,ambovombe,-25.1667,46.0833,25.18,47,0,3.34,MG,1699847291
258,saudarkrokur,65.7461,-19.6394,-0.95,71,96,3.04,IS,1699847292
259,broome,42.2506,-75.833,-0.44,82,6,0.45,US,1699847292
260,el aouinet,35.8669,7.8867,12.74,75,100,2.08,DZ,1699847293
261,ancud,-41.8697,-73.8203,8.78,84,92,5.01,CL,1699847293
262,envira,-7.3,-70.2167,24.02,86,16,1.15,BR,1699847294
263,wenling,28.3669,121.36,11.8,45,7,7.52,CN,1699847294
264,bandarbeyla,9.4942,50.8122,27.13,81,98,7.74,SO,1699847294
265,tidjikja,18.5564,-11.4271,24.24,14,7,3.78,MR,1699847295
266,igarka,67.4667,86.5833,-4.0,96,100,4.92,RU,1699847295
267,whitehorse,60.7161,-135.0538,-3.57,80,100,3.6,CA,1699847235
268,fale old settlement,-9.3852,-171.2468,29.41,68,57,1.5,TK,1699847296
269,al ghayzah,16.2079,52.176,26.06,70,1,0.92,YE,1699847296
270,colonia,50.9333,6.95,8.57,89,100,2.57,DE,1699847276
271,tamandare,-8.7597,-35.1047,23.11,81,8,1.35,BR,1699847055
272,mar del plata,-38.0023,-57.5575,11.04,75,0,2.06,AR,1699847254
273,kimbe,-5.5502,150.1429,30.44,58,99,2.07,PG,1699847298
274,saipan,15.1355,145.701,31.39,74,20,8.75,MP,1699847298
275,lonavla,18.75,73.4167,24.61,44,74,3.47,IN,1699847299
276,new norfolk,-42.7826,147.0587,21.72,32,15,4.77,AU,1699847299
277,kingston,17.997,-76.7936,28.53,79,20,2.57,JM,1699847167
278,okakarara,-20.5833,17.4333,19.59,51,41,1.2,NA,1699847300
279,sitka,57.0531,-135.33,1.94,87,0,0.0,US,1699847300
280,pisco,-13.7,-76.2167,19.45,88,15,3.09,PE,1699847301
281,newman,37.3138,-121.0208,17.19,39,96,2.42,US,1699847301
282,kodiak,57.79,-152.4072,-1.27,80,40,1.54,US,1699847301
283,mazagao,-0.115,-51.2894,28.03,87,2,1.95,BR,1699847302
284,ahar,38.4774,47.0699,10.56,51,93,2.9,IR,1699847302
285,la ronge,55.1001,-105.2842,-0.86,86,75,2.57,CA,1699847303
286,milledgeville,33.0801,-83.2321,14.08,83,100,0.0,US,1699847303
287,svetlyy,54.675,20.1347,7.98,72,100,4.81,RU,1699847304
288,al bawiti,28.3492,28.8659,18.93,89,0,2.71,EG,1699847304
289,noosa heads,-26.3833,153.15,31.3,67,3,7.85,AU,1699847304
290,las khorey,11.1595,48.1967,27.16,78,38,3.96,SO,1699847305
291,pacific grove,36.6177,-121.9166,15.1,87,0,0.0,US,1699847305
292,plastun,44.7561,136.2939,0.27,47,71,5.67,RU,1699847306
293,vadso,70.0744,29.7487,-4.91,80,20,1.54,NO,1699847306
294,arkalyk,50.2486,66.9114,3.64,87,67,1.83,KZ,1699847307
295,palpa,-14.5336,-75.1856,21.77,73,9,0.82,PE,1699847308
296,longyearbyen,78.2186,15.6401,-6.09,73,75,8.75,SJ,1699847108
297,klyuchi,52.2667,79.1667,4.7,81,97,4.94,RU,1699847309
298,al badari,26.9926,31.4155,20.08,49,4,2.3,EG,1699847310
299,erenhot,43.6475,111.9767,-2.27,34,97,2.67,CN,1699847043
300,cassilandia,-19.1133,-51.7342,26.99,34,22,1.64,BR,1699847311
301,naryn,41.4287,75.9911,-2.4,75,28,1.49,KG,1699847311
302,carnarvon,-24.8667,113.6333,23.76,62,28,5.31,AU,1699847312
303,srikakulam,18.3,83.9,27.59,57,95,3.08,IN,1699847312
304,gracias,14.5833,-88.5833,19.79,99,98,1.65,HN,1699847313
305,drayton valley,53.2168,-114.9854,-1.41,44,69,2.1,CA,1699847313
306,kudahuvadhoo,2.6708,72.8944,27.51,75,91,1.53,MV,1699847314
307,tangalle,6.024,80.7911,28.09,90,100,1.87,LK,1699847314
308,al jawf,29.5,38.75,21.34,43,99,0.61,SA,1699847314
309,peniche,39.3558,-9.3811,17.94,94,17,4.34,PT,1699847315
310,selfoss,63.9331,-20.9971,2.25,61,100,6.14,IS,1699847315
311,mudgee,-32.5943,149.5871,27.57,14,11,2.55,AU,1699847316
312,taoudenni,22.6783,-3.9836,23.88,22,4,5.33,ML,1699847316
313,mirpur sakro,24.5474,67.6277,26.48,36,100,2.33,PK,1699847316
314,saldanha,-33.0117,17.9442,13.03,87,1,5.93,ZA,1699847317
315,namibe,-15.1961,12.1522,22.3,76,78,1.22,AO,1699847318
316,sarakhs,36.5449,61.1577,14.2,44,0,3.06,IR,1699847318
317,horta,38.5333,-28.6333,16.68,86,100,2.68,PT,1699847319
318,betong,5.7743,101.0723,29.35,77,90,0.32,TH,1699847319
319,marolambo,-20.05,48.1167,22.19,79,61,0.6,MG,1699847319
320,cockburn town,21.4612,-71.1419,28.37,76,3,9.17,TC,1699847320
321,petropavlovsk-kamchatsky,53.0452,158.6483,-0.67,74,40,12.52,RU,1699847320
322,bad lippspringe,51.7833,8.8167,4.47,94,94,2.74,DE,1699847321
323,dzhangala,49.2167,50.3333,7.34,60,100,8.49,KZ,1699847321
324,dalbandin,28.8947,64.4101,18.51,30,67,3.32,PK,1699847321
325,falenki,58.3613,51.5946,0.79,97,100,7.07,RU,1699847322
326,saynshand,44.8824,110.1163,-2.4,43,7,4.26,MN,1699847322
327,morehead city,34.7229,-76.726,13.0,81,100,5.66,US,1699847322
328,guiren,33.6697,118.1889,7.16,33,80,1.38,CN,1699847323
329,richards bay,-28.783,32.0377,19.03,81,98,2.84,ZA,1699847323
330,shohimardon,39.9839,71.8028,1.43,35,62,0.45,UZ,1699847323
331,tiksi,71.6872,128.8694,-17.1,90,78,5.96,RU,1699847324
332,pailitas,8.9565,-73.6255,25.31,95,96,1.21,CO,1699847324
333,tchintabaraden,15.8969,5.7985,22.37,15,4,4.73,NE,1699847325
334,luena,-11.7833,19.9167,17.37,95,99,0.77,AO,1699847325
335,kurmuk,10.55,34.2833,23.3,74,40,1.3,SD,1699847325
336,bandon,51.7469,-8.7425,13.77,86,85,12.61,IE,1699847326
337,tsagan aman,47.5639,46.7218,10.12,90,100,3.6,RU,1699847326
338,karachi,24.9056,67.0822,20.9,60,20,2.06,PK,1699847275
339,mandalgovi,45.7625,106.2708,-1.39,17,35,3.88,MN,1699847327
340,shima,24.4478,117.8111,20.01,68,99,7.02,CN,1699847327
341,almeirim,-1.5233,-52.5817,27.23,61,1,2.54,BR,1699847327
342,abdulino,53.7,53.6667,3.58,71,100,9.01,RU,1699847328
343,kokopo,-4.352,152.2633,28.2,69,100,5.18,PG,1699847328
344,coahuayana de hidalgo,18.7,-103.6583,25.42,89,78,1.48,MX,1699847328
345,puerto aysen,-45.4,-72.7,5.31,99,100,2.54,CL,1699847328
346,kavaratti,10.5669,72.642,28.21,71,72,2.21,IN,1699847329
347,lebu,-37.6167,-73.65,7.95,74,0,6.25,CL,1699847329
348,tralee,52.2704,-9.7026,9.43,88,86,14.96,IE,1699847329
349,burang,30.25,81.1667,1.67,32,0,2.09,CN,1699847330
350,boa vista,2.8197,-60.6733,29.99,58,0,5.14,BR,1699847330
351,mossel bay,-34.1831,22.146,10.96,75,2,1.84,ZA,1699847330
352,smithers,54.7804,-127.1743,-0.82,100,100,1.03,CA,1699847330
353,boguchany,58.3814,97.4531,-6.19,92,100,1.79,RU,1699847331
354,carutapera,-1.195,-46.02,25.72,81,1,2.98,BR,1699847331
355,tsiombe,-25.3,45.4833,25.15,59,0,3.96,MG,1699847331
356,hobyo,5.3505,48.5268,27.35,80,100,4.41,SO,1699847332
357,lihue,21.9789,-159.3672,27.58,75,75,7.72,US,1699847332
358,talakan,50.3167,130.3667,-3.66,66,33,4.98,RU,1699847332
359,vilyuysk,63.7553,121.6247,-17.22,94,70,1.79,RU,1699847332
360,burutu,5.3509,5.5076,25.76,89,89,1.67,NG,1699847333
361,sinop,41.7711,34.8709,11.41,91,99,2.51,TR,1699847333
362,nueva palestina,15.8,-92.75,20.89,98,16,1.54,MX,1699847333
363,narvik,68.4384,17.4272,-2.33,75,11,3.31,NO,1699847334
364,kano,12.0001,8.5167,21.76,18,43,3.48,NG,1699847334
365,anshing,20.0333,77.3167,24.36,42,41,2.69,IN,1699847335
366,sabang,5.8933,95.3214,28.1,76,88,5.94,ID,1699847335
367,port nelson,23.6333,-74.8333,27.37,79,38,7.06,BS,1699847336
368,mermoz boabab,14.7065,-17.4758,25.88,83,0,4.12,SN,1699847336
369,belokurikha,51.9959,84.9896,2.83,96,100,2.5,RU,1699847336
370,stephenville,32.2207,-98.2023,13.07,86,75,0.0,US,1699847336
371,kerikeri,-35.2268,173.9474,19.3,53,31,3.84,NZ,1699847337
372,ilha de mocambique,-15.0342,40.7358,26.15,81,41,2.35,MZ,1699847337
373,swakopmund,-22.6833,14.5333,14.47,87,5,2.02,NA,1699847337
374,salem,11.65,78.1667,24.11,78,20,2.06,IN,1699847100
375,jiuquan,39.7432,98.5174,3.33,29,55,3.19,CN,1699847339
376,ponta delgada,37.7333,-25.6667,20.4,94,75,4.12,PT,1699847339
377,salalah,17.0151,54.0924,25.05,53,0,2.57,OM,1699847340
378,chipinge,-20.1883,32.6236,17.41,73,76,1.17,ZW,1699847340
379,pacocha,-17.5833,-71.3333,18.47,88,100,2.32,PE,1699847340
380,nizhneudinsk,54.9076,99.0276,-1.51,62,85,0.85,RU,1699847341
381,port blair,11.6667,92.75,27.02,83,75,2.06,IN,1699847341
382,severo-yeniseyskiy,60.3725,93.0408,-4.12,98,98,0.89,RU,1699847342
383,alaghsas,17.0187,8.0168,22.5,17,0,4.21,NE,1699847342
384,north bend,43.4065,-124.2243,13.29,93,100,3.6,US,1699847343
385,mejit,10.2753,170.8646,28.07,82,82,8.56,MH,1699847343
386,uliastay,47.7417,96.8444,-5.71,54,100,1.09,MN,1699847343
387,koksovyy,48.1967,40.5989,7.99,78,100,6.14,RU,1699847344
388,guangyuan,32.442,105.823,8.97,74,95,1.12,CN,1699847344
389,chapra,25.7667,84.75,24.99,36,1,1.95,IN,1699847345
390,dapa,9.7594,126.0531,29.46,70,13,2.45,PH,1699847345
391,lobujya,27.95,86.8167,-5.26,42,0,1.33,NP,1699847346
392,tyukhtet,56.5389,89.3011,2.32,95,100,4.41,RU,1699847346
393,tabou,4.423,-7.3528,25.6,89,37,2.83,CI,1699847347
394,charters towers,-20.1,146.2667,34.0,19,2,6.09,AU,1699847347
395,arica,-18.475,-70.3042,19.75,72,100,1.54,CL,1699847164
396,manokwari,-0.8667,134.0833,29.17,75,79,3.23,ID,1699847348
397,al wafrah,28.6392,47.9306,22.02,58,100,1.79,KW,1699847348
398,viedma,-40.8135,-62.9967,9.87,19,0,4.07,AR,1699847349
399,taroa,8.7058,171.2275,28.2,83,77,8.18,MH,1699847350
400,ribeira brava,32.65,-17.0667,21.35,80,32,1.0,PT,1699847350
401,stornoway,58.2093,-6.3865,7.98,83,40,5.14,GB,1699847351
402,enewetak,11.3474,162.3373,27.63,81,100,6.93,MH,1699847351
403,trondheim,63.4305,10.3951,0.05,84,26,2.84,NO,1699847352
404,kenai,60.5544,-151.2583,-4.92,94,0,1.54,US,1699847352
405,singkil,-7.9855,111.4161,33.45,49,42,2.85,ID,1699847352
406,arroio grande,-32.2375,-53.0869,16.19,95,100,3.84,BR,1699847141
407,patrocinio,-18.9439,-46.9925,23.41,36,80,1.32,BR,1699847172
408,gobabis,-22.45,18.9667,21.64,40,99,4.47,NA,1699847354
409,guerrero negro,27.9769,-114.0611,19.35,64,0,4.42,MX,1699847355
410,okha,53.5739,142.9478,-2.89,78,99,5.72,RU,1699847355
411,ladario,-19.0047,-57.6017,30.88,44,9,2.26,BR,1699847356
412,ola,59.5833,151.2833,-10.38,60,100,4.99,RU,1699847356
413,merizo village,13.2658,144.6691,32.31,83,22,8.07,GU,1699847357
414,shurugwi,-19.6702,30.0059,16.81,46,55,2.24,ZW,1699847357
415,nizhnesortymskiy,62.4397,71.7603,-11.25,93,35,4.35,RU,1699847358
416,acarau,-2.8856,-40.12,25.71,78,0,5.94,BR,1699847358
417,tual,-5.6667,132.75,27.96,78,41,4.86,ID,1699847358
418,kitimat,54.0524,-128.6534,4.21,70,77,0.89,CA,1699847359
419,princeville,45.7668,-61.2985,2.4,94,75,2.57,CA,1699847359
420,carbonear,47.7332,-53.2148,-0.97,79,32,4.79,CA,1699847360
421,nagqu,31.5,92.0,-5.35,25,4,2.74,CN,1699847360
422,nabire,-3.3667,135.4833,32.3,54,44,2.0,ID,1699847361
423,i-n-salah,27.1935,2.4607,19.93,35,18,4.96,DZ,1699847361
424,okhotsk,59.3833,143.3,-13.14,75,1,8.72,RU,1699847362
425,puerto baquerizo moreno,-0.9,-89.6,23.66,83,86,5.84,EC,1699847363
426,kariba,-16.5167,28.8,24.78,46,23,0.84,ZW,1699847364
427,mutoko,-17.397,32.2268,20.16,56,16,1.73,ZW,1699847364
428,eirunepe,-6.6603,-69.8736,25.56,81,30,0.68,BR,1699847365
429,novomyrhorod,48.7811,31.642,5.98,81,100,5.65,UA,1699847365
430,aripuana,-9.1667,-60.6333,25.84,75,42,0.61,BR,1699847366
431,debre sina,9.85,39.7667,10.69,84,76,1.62,ET,1699847366
432,remire-montjoly,4.9167,-52.2667,26.92,83,1,4.8,GF,1699847300
433,safotu,-13.4513,-172.4018,28.36,76,25,1.47,WS,1699847367
434,karratha,-20.7377,116.8463,31.04,33,32,7.84,AU,1699847367
435,lisala,2.15,21.5167,19.82,100,86,0.75,CD,1699847368
436,polyarnyy,69.1989,33.4478,-9.71,95,93,4.38,RU,1699847368
437,qingyuan,23.7,113.0333,19.99,62,8,5.32,CN,1699847369
438,zhanga buqtyrma,49.6295,83.5248,2.19,90,100,1.7,KZ,1699847369
439,maddur,12.6,77.0667,23.27,63,98,4.41,IN,1699847370
440,qingdao,36.0986,120.3719,6.78,39,0,5.0,CN,1699847370
441,cabo san lucas,22.8909,-109.9124,27.09,69,20,3.6,MX,1699846844
442,minas de marcona,-15.2119,-75.1103,14.39,91,90,6.0,PE,1699847371
443,gevas,38.2968,43.1083,6.78,60,9,2.36,TR,1699847371
444,fraserburgh,57.6874,-2.0184,7.46,88,94,13.83,GB,1699847372
445,rehoboth,-23.3167,17.0833,21.38,44,11,1.95,NA,1699847373
446,san luis de la loma,17.2706,-100.8939,26.65,84,52,2.33,MX,1699847373
447,fort bragg,35.139,-79.006,11.75,79,0,2.06,US,1699847119
448,azpeitia,43.1825,-2.2669,20.31,78,47,4.19,ES,1699847111
449,san nicolas de bari,22.7844,-81.9133,24.89,86,52,5.5,CU,1699847374
450,el granada,37.5027,-122.4694,16.61,82,100,4.12,US,1699847375
451,magadan,59.5667,150.8,-10.46,59,100,3.61,RU,1699847375
452,port hedland,-20.3167,118.5667,31.03,51,14,7.72,AU,1699847376
453,guajara mirim,-10.7828,-65.3394,24.19,91,55,1.26,BR,1699847376
454,jayapura,-2.5333,140.7,35.66,78,54,2.55,ID,1699847376
455,garden city,42.3256,-83.331,7.01,87,75,3.09,US,1699847093
456,ashland,40.8167,-82.2665,2.34,93,0,2.79,US,1699847378
457,prado,-17.3411,-39.2208,23.39,87,2,5.65,BR,1699847364
458,bozoum,6.3193,16.3799,20.17,98,100,1.2,CF,1699847379
459,urangan,-25.3,152.9,23.6,66,1,5.96,AU,1699847380
460,lanzhou,36.0564,103.7922,5.18,49,0,0.93,CN,1699847380
461,santa ana,33.7456,-117.8678,22.59,38,20,2.57,US,1699847352
462,lerwick,60.1545,-1.1494,7.9,76,20,9.97,GB,1699847381
463,tolanaro,-25.0319,46.9987,20.04,88,0,0.0,MG,1699847381
464,san patricio,28.017,-97.5169,17.69,97,100,5.6,US,1699847382
465,belmonte,-15.8631,-38.8828,23.99,85,14,4.63,BR,1699847125
466,onguday,50.75,86.15,-0.63,92,100,1.18,RU,1699847382
467,siocon,7.7061,122.1353,30.34,68,17,1.41,PH,1699847383
468,lamu,-2.2717,40.902,25.12,85,91,1.87,KE,1699847383
469,kismayo,-0.3582,42.5454,27.3,80,82,2.64,SO,1699847384
470,primero de mayo,-32.2552,-58.4228,18.64,96,74,5.6,AR,1699847384
471,ar ruways,24.1103,52.7306,27.32,60,8,3.38,AE,1699847385
472,guaruja,-23.9931,-46.2564,24.38,26,35,6.02,BR,1699847385
473,tongliao,43.6125,122.2653,0.51,68,1,5.01,CN,1699847386
474,belyy yar,53.6039,91.3903,-7.06,86,100,1.0,RU,1699847386
475,tayu,-6.5397,111.0518,31.79,58,53,2.51,ID,1699847386
476,suntar,62.1444,117.6319,-8.87,88,100,2.43,RU,1699847387
477,yeosu,34.7546,127.6599,9.33,36,0,5.16,KR,1699847387
478,ra-ngae,6.2968,101.7284,31.74,61,90,1.85,TH,1699847388
479,rakops,-21.0167,24.3333,26.42,24,79,4.76,BW,1699847388
480,napili-honokowai,20.9708,-156.6705,26.51,84,20,9.54,US,1699847388
481,marsh harbour,26.5412,-77.0636,25.46,63,12,3.84,BS,1699847389
482,palmer,42.1584,-72.3287,-0.27,74,0,1.54,US,1699847346
483,narasannapeta,18.4167,84.05,27.51,57,90,3.07,IN,1699847389
484,vahdat,38.5563,69.0135,6.41,81,45,0.0,TJ,1699847390
485,usinsk,65.9939,57.5281,-14.96,100,96,2.24,RU,1699847390
486,goronyo,13.4423,5.6763,23.18,16,1,3.92,NG,1699847390
487,edd,13.9297,41.6925,29.67,52,44,5.55,ER,1699847390
488,xilin hot,43.9667,116.0333,-5.11,60,2,5.14,CN,1699847391
489,loch garman,52.3342,-6.4575,13.83,100,100,10.73,IE,1699847391
490,palma sola,-23.9634,-64.2987,22.1,94,100,3.38,AR,1699847391
491,kegeyli shahar,42.7767,59.6078,1.05,55,0,5.08,UZ,1699847392
492,port macquarie,-31.4333,152.9167,21.05,60,67,6.42,AU,1699847345
493,flying fish cove,-10.4217,105.6791,27.82,69,40,6.17,CX,1699847392
494,saint-francois,46.4154,3.9054,13.14,94,100,2.57,FR,1699847358
495,ivanivka,46.7208,34.553,6.94,85,98,3.71,UA,1699847393
496,bonthe,7.5264,-12.505,26.03,85,91,1.17,SL,1699847393
497,pathein,16.7833,94.7333,29.85,71,77,4.25,MM,1699847394
498,vaxjo,56.8777,14.8091,1.25,99,100,3.09,SE,1699847394
499,kosh-agach,50.0,88.6667,-9.27,88,91,0.89,RU,1699847394
500,alakurtti,66.9672,30.3491,-6.39,96,100,1.6,RU,1699847395
501,south hedland,-20.4089,118.5983,30.96,51,21,7.72,AU,1699847395
502,nuuk,64.1835,-51.7216,-5.66,79,11,5.66,GL,1699847395
503,coos bay,43.3665,-124.2179,13.33,93,100,3.6,US,1699847395
504,hickory,35.7332,-81.3412,7.49,82,0,1.54,US,1699847357
505,miquelon,47.0975,-56.3814,0.0,66,8,6.36,PM,1699847396
506,mili,6.0815,171.735,28.72,80,100,8.35,MH,1699847396
507,jincheng,35.5022,112.8328,5.82,41,99,3.11,CN,1699847397
508,christchurch,-43.5333,172.6333,25.11,31,61,8.75,NZ,1699847068
509,piacabucu,-10.4056,-36.4344,23.09,80,6,3.41,BR,1699847397
510,taltal,-25.4,-70.4833,16.72,74,1,1.84,CL,1699846821
511,naze,28.3667,129.4833,18.51,64,96,8.76,JP,1699847370
512,brownwood,31.7093,-98.9912,14.62,86,100,0.0,US,1699847278
513,chadron,42.8294,-102.9999,9.92,44,0,4.12,US,1699847398
514,nahiyat ash shinafiyah,31.5874,44.6602,21.25,37,83,0.63,IQ,1699847399
515,fergus falls,46.283,-96.0776,5.04,75,0,2.57,US,1699847399
516,dakhla,23.6848,-15.958,21.89,49,25,4.06,EH,1699847399
517,talodi,10.6325,30.3797,26.09,55,73,0.84,SD,1699847399
518,ceeldheer,3.8488,47.1806,27.61,76,88,1.95,SO,1699847400
519,queenstown,-31.8976,26.8753,9.05,86,2,0.1,ZA,1699847400
520,sinjai,-5.1241,120.253,32.98,48,5,5.26,ID,1699847400
521,ntui,4.45,11.6333,21.13,99,100,0.78,CM,1699847401
522,zyryanskoye,56.8306,86.6258,1.86,98,100,4.28,RU,1699847401
523,novokhopersk,51.0969,41.6252,8.42,73,97,8.52,RU,1699847402
524,yuzhnyy,53.2542,83.6936,3.42,94,0,4.0,RU,1699847403
525,puerto leguizamo,-0.1934,-74.7819,22.93,99,72,0.82,CO,1699847404
526,kuruman,-27.4524,23.4325,15.0,31,0,5.81,ZA,1699847404
527,san andres,12.5847,-81.7006,28.01,89,20,4.12,CO,1699847405
528,weida,50.7667,12.0667,4.96,87,48,3.04,DE,1699847405
529,yinchuan,38.4681,106.2731,3.43,16,37,1.44,CN,1699847379
530,labrador city,52.9463,-66.9114,-8.05,93,100,3.09,CA,1699847407
531,lubon,52.3471,16.8927,4.49,95,20,1.03,PL,1699847407
532,nouna,12.7333,-3.8667,23.09,13,62,3.11,BF,1699847408
533,lazaro cardenas,17.9583,-102.2,26.0,85,52,1.69,MX,1699847283
534,ibiruba,-28.6275,-53.0897,22.0,93,55,3.96,BR,1699847410
535,faya-largeau,17.9257,19.1043,24.0,22,7,8.42,TD,1699847410
536,gadzhiyevo,69.2551,33.3362,-10.22,96,96,4.23,RU,1699847330
537,barreirinha,-2.7933,-57.07,28.13,52,19,1.45,BR,1699847412
538,oakville,43.4501,-79.6829,4.16,81,63,1.54,CA,1699847245
539,al qubbah,32.7616,22.2424,14.14,87,0,3.86,LY,1699847413
540,howrah,22.5892,88.3103,26.0,69,15,4.12,IN,1699847414
541,sona,45.4388,10.8255,5.18,65,38,1.17,IT,1699847414
542,nova vicosa,-17.8919,-39.3719,24.27,84,1,6.68,BR,1699847415
543,darwin,-12.4611,130.8418,32.75,57,40,4.47,AU,1699847148
544,kivioli,59.3531,26.9711,3.06,97,100,6.47,EE,1699847416
545,tionk essil,12.7856,-16.5217,23.03,69,73,1.93,SN,1699847417
546,kukawa,12.9234,13.5606,24.4,52,65,4.52,NG,1699847418
547,akjoujt,19.6969,-14.4164,23.36,15,1,3.32,MR,1699847418
548,al burayqah,30.4062,19.5739,21.48,70,0,2.95,LY,1699847419
549,galle,6.0367,80.217,25.59,90,100,2.9,LK,1699847420
550,kamwenge,0.1866,30.4539,16.68,99,97,0.6,UG,1699847420
551,mumford,5.2618,-0.759,26.29,87,40,3.29,GH,1699847421
552,spearfish,44.4908,-103.8594,9.56,35,0,4.63,US,1699847421
553,caleta de carquin,-11.0925,-77.6267,19.47,85,16,4.12,PE,1699847422
554,auki,-8.7676,160.7034,28.03,74,100,1.22,SB,1699847422
555,sydney,-33.8679,151.2073,24.21,60,40,6.69,AU,1699846835
556,mao,39.8885,4.2658,17.31,100,0,1.54,ES,1699847423
557,brisas de zicatela,15.8369,-97.0419,28.29,57,0,1.54,MX,1699847424
558,kaoma,-14.7833,24.8,17.45,89,12,2.03,ZM,1699847425
559,berdigestyakh,62.0989,126.6992,-14.94,92,99,3.61,RU,1699847426
560,nacala,-14.5428,40.6728,26.99,76,10,1.71,MZ,1699847427
561,pariaman,-0.619,100.12,29.03,76,77,2.83,ID,1699847428
562,yuzhno-kurilsk,44.0306,145.8556,2.43,80,81,1.9,RU,1699847273
563,bemidji,47.4736,-94.8803,6.61,76,0,4.63,US,1699847143
564,aban,56.67,96.06,-2.49,74,99,3.42,RU,1699847429
565,douz,33.4663,9.0203,17.21,59,4,4.14,TN,1699847383
566,callao,-12.0667,-77.15,20.95,77,100,6.17,PE,1699847167
567,birao,10.2849,22.7882,23.6,81,62,1.07,CF,1699847432
568,thames,-37.1333,175.5333,20.62,40,5,4.38,NZ,1699847433
569,kachug,53.9606,105.8817,-4.97,97,59,0.45,RU,1699847433
570,ishikawa,26.4233,127.8214,22.18,49,75,8.23,JP,1699847434
571,istgah-e rah ahan-e garmsar,35.2346,52.3094,16.16,42,99,0.76,IR,1699847435
